[{"name":"'s-Gravenhage","prov":"Zuid-Holland","code":"GM0518","lat":52.0691,"lon":4.3002},{"name":"'s-Hertogenbosch","prov":"Noord-Brabant","code":"GM0796","lat":51.7161,"lon":5.3513},{"name":"Aa en Hunze","prov":"Drenthe","code":"GM1680","lat":52.9918,"lon":6.7278},{"name":"Aalsmeer","prov":"Noord-Holland","code":"GM0358","lat":52.2586,"lon":4.7577},{"name":"Aalten","prov":"Gelderland","code":"GM0197","lat":51.9215,"lon":6.5608},{"name":"Achtkarspelen","prov":"Fryslân","code":"GM0059","lat":53.2171,"lon":6.1425},{"name":"Alblasserdam","prov":"Zuid-Holland","code":"GM0482","lat":51.8644,"lon":4.6648},{"name":"Albrandswaard","prov":"Zuid-Holland","code":"GM0613","lat":51.8518,"lon":4.4369},{"name":"Alkmaar","prov":"Noord-Holland","code":"GM0361","lat":52.6006,"lon":4.8036},{"name":"Almelo","prov":"Overijssel","code":"GM0141","lat":52.3471,"lon":6.6603},{"name":"Almere","prov":"Flevoland","code":"GM0034","lat":52.3671,"lon":5.2466},{"name":"Alphen aan den Rijn","prov":"Zuid-Holland","code":"GM0484","lat":52.1145,"lon":4.6401},{"name":"Alphen-Chaam","prov":"Noord-Brabant","code":"GM1723","lat":51.5002,"lon":4.887},{"name":"Altena","prov":"Noord-Brabant","code":"GM1959","lat":51.7656,"lon":4.9449},{"name":"Ameland","prov":"Fryslân","code":"GM0060","lat":53.4499,"lon":5.7415},{"name":"Amersfoort","prov":"Utrecht","code":"GM0307","lat":52.1742,"lon":5.3841},{"name":"Amstelveen","prov":"Noord-Holland","code":"GM0362","lat":52.2892,"lon":4.8512},{"name":"Amsterdam","prov":"Noord-Holland","code":"GM0363","lat":52.381,"lon":4.8805},{"name":"Apeldoorn","prov":"Gelderland","code":"GM0200","lat":52.1893,"lon":5.9211},{"name":"Arnhem","prov":"Gelderland","code":"GM0202","lat":52.001,"lon":5.893},{"name":"Assen","prov":"Drenthe","code":"GM0106","lat":53.0019,"lon":6.5517},{"name":"Asten","prov":"Noord-Brabant","code":"GM0743","lat":51.3864,"lon":5.7795},{"name":"Baarle-Nassau","prov":"Noord-Brabant","code":"GM0744","lat":51.4395,"lon":4.8931},{"name":"Baarn","prov":"Utrecht","code":"GM0308","lat":52.2032,"lon":5.2627},{"name":"Barendrecht","prov":"Zuid-Holland","code":"GM0489","lat":51.8504,"lon":4.5256},{"name":"Barneveld","prov":"Gelderland","code":"GM0203","lat":52.1685,"lon":5.6405},{"name":"Beek (L.)","prov":"Limburg","code":"GM0888","lat":50.9331,"lon":5.8114},{"name":"Beekdaelen","prov":"Limburg","code":"GM1954","lat":50.9358,"lon":5.8952},{"name":"Beesel","prov":"Limburg","code":"GM0889","lat":51.2696,"lon":6.0693},{"name":"Berg en Dal","prov":"Gelderland","code":"GM1945","lat":51.8189,"lon":5.9504},{"name":"Bergeijk","prov":"Noord-Brabant","code":"GM1724","lat":51.3096,"lon":5.3376},{"name":"Bergen (L.)","prov":"Limburg","code":"GM0893","lat":51.5924,"lon":6.088},{"name":"Bergen (NH.)","prov":"Noord-Holland","code":"GM0373","lat":52.6629,"lon":4.67},{"name":"Bergen op Zoom","prov":"Noord-Brabant","code":"GM0748","lat":51.5034,"lon":4.2888},{"name":"Berkelland","prov":"Gelderland","code":"GM1859","lat":52.1003,"lon":6.5705},{"name":"Bernheze","prov":"Noord-Brabant","code":"GM1721","lat":51.6849,"lon":5.5204},{"name":"Best","prov":"Noord-Brabant","code":"GM0753","lat":51.5138,"lon":5.3977},{"name":"Beuningen","prov":"Gelderland","code":"GM0209","lat":51.8625,"lon":5.7402},{"name":"Beverwijk","prov":"Noord-Holland","code":"GM0375","lat":52.4844,"lon":4.656},{"name":"Bladel","prov":"Noord-Brabant","code":"GM1728","lat":51.3725,"lon":5.2384},{"name":"Blaricum","prov":"Noord-Holland","code":"GM0376","lat":52.2786,"lon":5.2566},{"name":"Bloemendaal","prov":"Noord-Holland","code":"GM0377","lat":52.3821,"lon":4.5858},{"name":"Bodegraven-Reeuwijk","prov":"Zuid-Holland","code":"GM1901","lat":52.0654,"lon":4.7654},{"name":"Boekel","prov":"Noord-Brabant","code":"GM0755","lat":51.6064,"lon":5.694},{"name":"Borger-Odoorn","prov":"Drenthe","code":"GM1681","lat":52.9057,"lon":6.8718},{"name":"Borne","prov":"Overijssel","code":"GM0147","lat":52.3117,"lon":6.7448},{"name":"Borsele","prov":"Zeeland","code":"GM0654","lat":51.445,"lon":3.8138},{"name":"Boxtel","prov":"Noord-Brabant","code":"GM0757","lat":51.5817,"lon":5.3252},{"name":"Breda","prov":"Noord-Brabant","code":"GM0758","lat":51.5854,"lon":4.7619},{"name":"Bronckhorst","prov":"Gelderland","code":"GM1876","lat":52.0449,"lon":6.3043},{"name":"Brummen","prov":"Gelderland","code":"GM0213","lat":52.1086,"lon":6.118},{"name":"Brunssum","prov":"Limburg","code":"GM0899","lat":50.9431,"lon":5.9781},{"name":"Bunnik","prov":"Utrecht","code":"GM0312","lat":52.0427,"lon":5.215},{"name":"Bunschoten","prov":"Utrecht","code":"GM0313","lat":52.2393,"lon":5.3583},{"name":"Buren","prov":"Gelderland","code":"GM0214","lat":51.9385,"lon":5.4035},{"name":"Capelle aan den IJssel","prov":"Zuid-Holland","code":"GM0502","lat":51.9352,"lon":4.5792},{"name":"Castricum","prov":"Noord-Holland","code":"GM0383","lat":52.5569,"lon":4.6821},{"name":"Coevorden","prov":"Drenthe","code":"GM0109","lat":52.7407,"lon":6.7359},{"name":"Cranendonck","prov":"Noord-Brabant","code":"GM1706","lat":51.2868,"lon":5.5968},{"name":"Culemborg","prov":"Gelderland","code":"GM0216","lat":51.946,"lon":5.2083},{"name":"Dalfsen","prov":"Overijssel","code":"GM0148","lat":52.5148,"lon":6.2765},{"name":"Dantumadiel","prov":"Fryslân","code":"GM1891","lat":53.2794,"lon":5.9833},{"name":"De Bilt","prov":"Utrecht","code":"GM0310","lat":52.1421,"lon":5.1739},{"name":"De Fryske Marren","prov":"Fryslân","code":"GM1940","lat":52.9166,"lon":5.7241},{"name":"De Ronde Venen","prov":"Utrecht","code":"GM0736","lat":52.226,"lon":4.9182},{"name":"De Wolden","prov":"Drenthe","code":"GM1690","lat":52.7019,"lon":6.3729},{"name":"Delft","prov":"Zuid-Holland","code":"GM0503","lat":51.9971,"lon":4.3639},{"name":"Den Helder","prov":"Noord-Holland","code":"GM0400","lat":52.9216,"lon":4.7532},{"name":"Deurne","prov":"Noord-Brabant","code":"GM0762","lat":51.4367,"lon":5.8267},{"name":"Deventer","prov":"Overijssel","code":"GM0150","lat":52.2682,"lon":6.2359},{"name":"Diemen","prov":"Noord-Holland","code":"GM0384","lat":52.3359,"lon":4.9863},{"name":"Dijk en Waard","prov":"Noord-Holland","code":"GM1980","lat":52.6818,"lon":4.8207},{"name":"Dinkelland","prov":"Overijssel","code":"GM1774","lat":52.3726,"lon":6.9133},{"name":"Doesburg","prov":"Gelderland","code":"GM0221","lat":52.0201,"lon":6.1473},{"name":"Doetinchem","prov":"Gelderland","code":"GM0222","lat":51.9605,"lon":6.2871},{"name":"Dongen","prov":"Noord-Brabant","code":"GM0766","lat":51.6355,"lon":4.9553},{"name":"Dordrecht","prov":"Zuid-Holland","code":"GM0505","lat":51.7815,"lon":4.7079},{"name":"Drechterland","prov":"Noord-Holland","code":"GM0498","lat":52.6635,"lon":5.1651},{"name":"Drimmelen","prov":"Noord-Brabant","code":"GM1719","lat":51.6996,"lon":4.7586},{"name":"Dronten","prov":"Flevoland","code":"GM0303","lat":52.502,"lon":5.7014},{"name":"Druten","prov":"Gelderland","code":"GM0225","lat":51.8741,"lon":5.6179},{"name":"Duiven","prov":"Gelderland","code":"GM0226","lat":51.9466,"lon":6.0181},{"name":"Echt-Susteren","prov":"Limburg","code":"GM1711","lat":51.0853,"lon":5.909},{"name":"Edam-Volendam","prov":"Noord-Holland","code":"GM0385","lat":52.541,"lon":5.0186},{"name":"Ede","prov":"Gelderland","code":"GM0228","lat":52.0762,"lon":5.7274},{"name":"Eemnes","prov":"Utrecht","code":"GM0317","lat":52.2505,"lon":5.2805},{"name":"Eemsdelta","prov":"Groningen","code":"GM1979","lat":53.3285,"lon":6.8383},{"name":"Eersel","prov":"Noord-Brabant","code":"GM0770","lat":51.3963,"lon":5.3144},{"name":"Eijsden-Margraten","prov":"Limburg","code":"GM1903","lat":50.802,"lon":5.7732},{"name":"Eindhoven","prov":"Noord-Brabant","code":"GM0772","lat":51.4499,"lon":5.4582},{"name":"Elburg","prov":"Gelderland","code":"GM0230","lat":52.4124,"lon":5.8496},{"name":"Emmen","prov":"Drenthe","code":"GM0114","lat":52.7498,"lon":6.9619},{"name":"Enkhuizen","prov":"Noord-Holland","code":"GM0388","lat":52.7137,"lon":5.2734},{"name":"Enschede","prov":"Overijssel","code":"GM0153","lat":52.221,"lon":6.8777},{"name":"Epe","prov":"Gelderland","code":"GM0232","lat":52.3256,"lon":5.9553},{"name":"Ermelo","prov":"Gelderland","code":"GM0233","lat":52.2883,"lon":5.6682},{"name":"Etten-Leur","prov":"Noord-Brabant","code":"GM0777","lat":51.578,"lon":4.6452},{"name":"Geertruidenberg","prov":"Noord-Brabant","code":"GM0779","lat":51.6967,"lon":4.8821},{"name":"Geldrop-Mierlo","prov":"Noord-Brabant","code":"GM1771","lat":51.4308,"lon":5.587},{"name":"Gemert-Bakel","prov":"Noord-Brabant","code":"GM1652","lat":51.5408,"lon":5.7541},{"name":"Gennep","prov":"Limburg","code":"GM0907","lat":51.7003,"lon":5.9856},{"name":"Gilze en Rijen","prov":"Noord-Brabant","code":"GM0784","lat":51.56,"lon":4.9176},{"name":"Goeree-Overflakkee","prov":"Zuid-Holland","code":"GM1924","lat":51.7472,"lon":4.127},{"name":"Goes","prov":"Zeeland","code":"GM0664","lat":51.515,"lon":3.8444},{"name":"Goirle","prov":"Noord-Brabant","code":"GM0785","lat":51.5128,"lon":5.0314},{"name":"Gooise Meren","prov":"Noord-Holland","code":"GM1942","lat":52.301,"lon":5.1362},{"name":"Gorinchem","prov":"Zuid-Holland","code":"GM0512","lat":51.839,"lon":4.9761},{"name":"Gouda","prov":"Zuid-Holland","code":"GM0513","lat":52.0141,"lon":4.7069},{"name":"Groningen","prov":"Groningen","code":"GM0014","lat":53.2179,"lon":6.621},{"name":"Gulpen-Wittem","prov":"Limburg","code":"GM1729","lat":50.8023,"lon":5.9013},{"name":"Haaksbergen","prov":"Overijssel","code":"GM0158","lat":52.1553,"lon":6.756},{"name":"Haarlem","prov":"Noord-Holland","code":"GM0392","lat":52.3838,"lon":4.6477},{"name":"Haarlemmermeer","prov":"Noord-Holland","code":"GM0394","lat":52.3081,"lon":4.6871},{"name":"Halderberge","prov":"Noord-Brabant","code":"GM1655","lat":51.5906,"lon":4.5229},{"name":"Hardenberg","prov":"Overijssel","code":"GM0160","lat":52.5853,"lon":6.5735},{"name":"Harderwijk","prov":"Gelderland","code":"GM0243","lat":52.3404,"lon":5.6548},{"name":"Hardinxveld-Giessendam","prov":"Zuid-Holland","code":"GM0523","lat":51.8319,"lon":4.8531},{"name":"Harlingen","prov":"Fryslân","code":"GM0072","lat":53.1759,"lon":5.4506},{"name":"Hattem","prov":"Gelderland","code":"GM0244","lat":52.4752,"lon":6.0524},{"name":"Heemskerk","prov":"Noord-Holland","code":"GM0396","lat":52.5124,"lon":4.647},{"name":"Heemstede","prov":"Noord-Holland","code":"GM0397","lat":52.3443,"lon":4.6156},{"name":"Heerde","prov":"Gelderland","code":"GM0246","lat":52.4064,"lon":6.0513},{"name":"Heerenveen","prov":"Fryslân","code":"GM0074","lat":52.9965,"lon":5.9782},{"name":"Heerlen","prov":"Limburg","code":"GM0917","lat":50.8929,"lon":5.9696},{"name":"Heeze-Leende","prov":"Noord-Brabant","code":"GM1658","lat":51.3604,"lon":5.5671},{"name":"Heiloo","prov":"Noord-Holland","code":"GM0399","lat":52.6001,"lon":4.7096},{"name":"Hellendoorn","prov":"Overijssel","code":"GM0163","lat":52.387,"lon":6.4508},{"name":"Helmond","prov":"Noord-Brabant","code":"GM0794","lat":51.4768,"lon":5.6588},{"name":"Hendrik-Ido-Ambacht","prov":"Zuid-Holland","code":"GM0531","lat":51.8424,"lon":4.6384},{"name":"Hengelo (O.)","prov":"Overijssel","code":"GM0164","lat":52.2548,"lon":6.7778},{"name":"Het Hogeland","prov":"Groningen","code":"GM1966","lat":53.3755,"lon":6.5325},{"name":"Heumen","prov":"Gelderland","code":"GM0252","lat":51.7778,"lon":5.8188},{"name":"Heusden","prov":"Noord-Brabant","code":"GM0797","lat":51.6959,"lon":5.1592},{"name":"Hillegom","prov":"Zuid-Holland","code":"GM0534","lat":52.2967,"lon":4.5776},{"name":"Hilvarenbeek","prov":"Noord-Brabant","code":"GM0798","lat":51.4796,"lon":5.1453},{"name":"Hilversum","prov":"Noord-Holland","code":"GM0402","lat":52.2229,"lon":5.1687},{"name":"Hoeksche Waard","prov":"Zuid-Holland","code":"GM1963","lat":51.7716,"lon":4.4618},{"name":"Hof van Twente","prov":"Overijssel","code":"GM1735","lat":52.236,"lon":6.5895},{"name":"Hollands Kroon","prov":"Noord-Holland","code":"GM1911","lat":52.8302,"lon":4.9493},{"name":"Hoogeveen","prov":"Drenthe","code":"GM0118","lat":52.7233,"lon":6.514},{"name":"Hoorn","prov":"Noord-Holland","code":"GM0405","lat":52.6564,"lon":5.0701},{"name":"Horst aan de Maas","prov":"Limburg","code":"GM1507","lat":51.445,"lon":6.0398},{"name":"Houten","prov":"Utrecht","code":"GM0321","lat":52.0045,"lon":5.1819},{"name":"Huizen","prov":"Noord-Holland","code":"GM0406","lat":52.2929,"lon":5.2346},{"name":"Hulst","prov":"Zeeland","code":"GM0677","lat":51.3225,"lon":4.0694},{"name":"IJsselstein","prov":"Utrecht","code":"GM0353","lat":52.0271,"lon":5.0301},{"name":"Kaag en Braassem","prov":"Zuid-Holland","code":"GM1884","lat":52.1931,"lon":4.6282},{"name":"Kampen","prov":"Overijssel","code":"GM0166","lat":52.5551,"lon":5.9333},{"name":"Kapelle","prov":"Zeeland","code":"GM0678","lat":51.4844,"lon":3.9675},{"name":"Katwijk","prov":"Zuid-Holland","code":"GM0537","lat":52.1903,"lon":4.4233},{"name":"Kerkrade","prov":"Limburg","code":"GM0928","lat":50.8716,"lon":6.0521},{"name":"Koggenland","prov":"Noord-Holland","code":"GM1598","lat":52.6439,"lon":4.9475},{"name":"Krimpen aan den IJssel","prov":"Zuid-Holland","code":"GM0542","lat":51.914,"lon":4.5981},{"name":"Krimpenerwaard","prov":"Zuid-Holland","code":"GM1931","lat":51.952,"lon":4.7372},{"name":"Laarbeek","prov":"Noord-Brabant","code":"GM1659","lat":51.5319,"lon":5.6096},{"name":"Land van Cuijk","prov":"Noord-Brabant","code":"GM1982","lat":51.6557,"lon":5.8586},{"name":"Landgraaf","prov":"Limburg","code":"GM0882","lat":50.9065,"lon":6.0317},{"name":"Landsmeer","prov":"Noord-Holland","code":"GM0415","lat":52.4511,"lon":4.9236},{"name":"Lansingerland","prov":"Zuid-Holland","code":"GM1621","lat":52.0046,"lon":4.5065},{"name":"Laren (NH.)","prov":"Noord-Holland","code":"GM0417","lat":52.2473,"lon":5.2171},{"name":"Leeuwarden","prov":"Fryslân","code":"GM0080","lat":53.1707,"lon":5.7968},{"name":"Leiden","prov":"Zuid-Holland","code":"GM0546","lat":52.155,"lon":4.4847},{"name":"Leiderdorp","prov":"Zuid-Holland","code":"GM0547","lat":52.1583,"lon":4.5396},{"name":"Leidschendam-Voorburg","prov":"Zuid-Holland","code":"GM1916","lat":52.0911,"lon":4.4226},{"name":"Lelystad","prov":"Flevoland","code":"GM0995","lat":52.4781,"lon":5.4717},{"name":"Leudal","prov":"Limburg","code":"GM1640","lat":51.2402,"lon":5.8851},{"name":"Leusden","prov":"Utrecht","code":"GM0327","lat":52.1223,"lon":5.4156},{"name":"Lingewaard","prov":"Gelderland","code":"GM1705","lat":51.9011,"lon":5.9428},{"name":"Lisse","prov":"Zuid-Holland","code":"GM0553","lat":52.2551,"lon":4.5458},{"name":"Lochem","prov":"Gelderland","code":"GM0262","lat":52.1792,"lon":6.3485},{"name":"Loon op Zand","prov":"Noord-Brabant","code":"GM0809","lat":51.6406,"lon":5.0481},{"name":"Lopik","prov":"Utrecht","code":"GM0331","lat":51.9852,"lon":4.9454},{"name":"Losser","prov":"Overijssel","code":"GM0168","lat":52.3031,"lon":7.0026},{"name":"Maasdriel","prov":"Gelderland","code":"GM0263","lat":51.7759,"lon":5.2989},{"name":"Maasgouw","prov":"Limburg","code":"GM1641","lat":51.1613,"lon":5.8834},{"name":"Maashorst","prov":"Noord-Brabant","code":"GM1991","lat":51.6873,"lon":5.6548},{"name":"Maassluis","prov":"Zuid-Holland","code":"GM0556","lat":51.9238,"lon":4.2502},{"name":"Maastricht","prov":"Limburg","code":"GM0935","lat":50.8535,"lon":5.6988},{"name":"Medemblik","prov":"Noord-Holland","code":"GM0420","lat":52.7203,"lon":5.0991},{"name":"Meerssen","prov":"Limburg","code":"GM0938","lat":50.902,"lon":5.7566},{"name":"Meierijstad","prov":"Noord-Brabant","code":"GM1948","lat":51.5925,"lon":5.5065},{"name":"Meppel","prov":"Drenthe","code":"GM0119","lat":52.715,"lon":6.1951},{"name":"Middelburg (Z.)","prov":"Zeeland","code":"GM0687","lat":51.5022,"lon":3.6473},{"name":"Midden-Delfland","prov":"Zuid-Holland","code":"GM1842","lat":51.9645,"lon":4.3059},{"name":"Midden-Drenthe","prov":"Drenthe","code":"GM1731","lat":52.8669,"lon":6.5426},{"name":"Midden-Groningen","prov":"Groningen","code":"GM1952","lat":53.1949,"lon":6.8077},{"name":"Moerdijk","prov":"Noord-Brabant","code":"GM1709","lat":51.659,"lon":4.5418},{"name":"Molenlanden","prov":"Zuid-Holland","code":"GM1978","lat":51.8846,"lon":4.8467},{"name":"Montferland","prov":"Gelderland","code":"GM1955","lat":51.9175,"lon":6.2131},{"name":"Montfoort","prov":"Utrecht","code":"GM0335","lat":52.048,"lon":4.9436},{"name":"Mook en Middelaar","prov":"Limburg","code":"GM0944","lat":51.7482,"lon":5.8987},{"name":"Neder-Betuwe","prov":"Gelderland","code":"GM1740","lat":51.9156,"lon":5.587},{"name":"Nederweert","prov":"Limburg","code":"GM0946","lat":51.2945,"lon":5.773},{"name":"Nieuwegein","prov":"Utrecht","code":"GM0356","lat":52.0298,"lon":5.0953},{"name":"Nieuwkoop","prov":"Zuid-Holland","code":"GM0569","lat":52.1715,"lon":4.7796},{"name":"Nijkerk","prov":"Gelderland","code":"GM0267","lat":52.2121,"lon":5.4849},{"name":"Nijmegen","prov":"Gelderland","code":"GM0268","lat":51.8394,"lon":5.8382},{"name":"Nissewaard","prov":"Zuid-Holland","code":"GM1930","lat":51.833,"lon":4.2863},{"name":"Noardeast-Fryslân","prov":"Fryslân","code":"GM1970","lat":53.3324,"lon":6.0193},{"name":"Noord-Beveland","prov":"Zeeland","code":"GM1695","lat":51.5745,"lon":3.7723},{"name":"Noordenveld","prov":"Drenthe","code":"GM1699","lat":53.0961,"lon":6.4399},{"name":"Noordoostpolder","prov":"Flevoland","code":"GM0171","lat":52.7133,"lon":5.7674},{"name":"Noordwijk","prov":"Zuid-Holland","code":"GM0575","lat":52.2706,"lon":4.4849},{"name":"Nuenen, Gerwen en Nederwetten","prov":"Noord-Brabant","code":"GM0820","lat":51.4796,"lon":5.5505},{"name":"Nunspeet","prov":"Gelderland","code":"GM0302","lat":52.3392,"lon":5.7864},{"name":"Oegstgeest","prov":"Zuid-Holland","code":"GM0579","lat":52.1868,"lon":4.4728},{"name":"Oirschot","prov":"Noord-Brabant","code":"GM0823","lat":51.4943,"lon":5.2901},{"name":"Oisterwijk","prov":"Noord-Brabant","code":"GM0824","lat":51.5628,"lon":5.2039},{"name":"Oldambt","prov":"Groningen","code":"GM1895","lat":53.1945,"lon":7.0555},{"name":"Oldebroek","prov":"Gelderland","code":"GM0269","lat":52.4565,"lon":5.9379},{"name":"Oldenzaal","prov":"Overijssel","code":"GM0173","lat":52.3081,"lon":6.9117},{"name":"Olst-Wijhe","prov":"Overijssel","code":"GM1773","lat":52.3678,"lon":6.1539},{"name":"Ommen","prov":"Overijssel","code":"GM0175","lat":52.5159,"lon":6.4343},{"name":"Oost Gelre","prov":"Gelderland","code":"GM1586","lat":52.0099,"lon":6.5779},{"name":"Oosterhout","prov":"Noord-Brabant","code":"GM0826","lat":51.6377,"lon":4.864},{"name":"Ooststellingwerf","prov":"Fryslân","code":"GM0085","lat":52.9824,"lon":6.2834},{"name":"Oostzaan","prov":"Noord-Holland","code":"GM0431","lat":52.4503,"lon":4.876},{"name":"Opmeer","prov":"Noord-Holland","code":"GM0432","lat":52.7147,"lon":4.9533},{"name":"Opsterland","prov":"Fryslân","code":"GM0086","lat":53.0493,"lon":6.1129},{"name":"Oss","prov":"Noord-Brabant","code":"GM0828","lat":51.7819,"lon":5.5268},{"name":"Oude IJsselstreek","prov":"Gelderland","code":"GM1509","lat":51.9072,"lon":6.4087},{"name":"Ouder-Amstel","prov":"Noord-Holland","code":"GM0437","lat":52.2895,"lon":4.9125},{"name":"Oudewater","prov":"Utrecht","code":"GM0589","lat":52.0268,"lon":4.8639},{"name":"Overbetuwe","prov":"Gelderland","code":"GM1734","lat":51.9243,"lon":5.7786},{"name":"Papendrecht","prov":"Zuid-Holland","code":"GM0590","lat":51.8331,"lon":4.7043},{"name":"Peel en Maas","prov":"Limburg","code":"GM1894","lat":51.3363,"lon":5.9943},{"name":"Pekela","prov":"Groningen","code":"GM0765","lat":53.0709,"lon":6.974},{"name":"Pijnacker-Nootdorp","prov":"Zuid-Holland","code":"GM1926","lat":52.0173,"lon":4.4206},{"name":"Purmerend","prov":"Noord-Holland","code":"GM0439","lat":52.5429,"lon":4.9309},{"name":"Putten","prov":"Gelderland","code":"GM0273","lat":52.2434,"lon":5.5851},{"name":"Raalte","prov":"Overijssel","code":"GM0177","lat":52.3876,"lon":6.2792},{"name":"Reimerswaal","prov":"Zeeland","code":"GM0703","lat":51.4371,"lon":4.1387},{"name":"Renkum","prov":"Gelderland","code":"GM0274","lat":51.99,"lon":5.7841},{"name":"Renswoude","prov":"Utrecht","code":"GM0339","lat":52.0687,"lon":5.5344},{"name":"Reusel-De Mierden","prov":"Noord-Brabant","code":"GM1667","lat":51.3786,"lon":5.1479},{"name":"Rheden","prov":"Gelderland","code":"GM0275","lat":52.0329,"lon":6.0506},{"name":"Rhenen","prov":"Utrecht","code":"GM0340","lat":51.9805,"lon":5.5623},{"name":"Ridderkerk","prov":"Zuid-Holland","code":"GM0597","lat":51.8693,"lon":4.5946},{"name":"Rijssen-Holten","prov":"Overijssel","code":"GM1742","lat":52.2917,"lon":6.434},{"name":"Rijswijk (ZH.)","prov":"Zuid-Holland","code":"GM0603","lat":52.0359,"lon":4.3262},{"name":"Roerdalen","prov":"Limburg","code":"GM1669","lat":51.1458,"lon":6.0414},{"name":"Roermond","prov":"Limburg","code":"GM0957","lat":51.2024,"lon":6.0129},{"name":"Roosendaal","prov":"Noord-Brabant","code":"GM1674","lat":51.5128,"lon":4.4249},{"name":"Rotterdam","prov":"Zuid-Holland","code":"GM0599","lat":51.9264,"lon":4.3034},{"name":"Rozendaal","prov":"Gelderland","code":"GM0277","lat":52.0422,"lon":5.9677},{"name":"Rucphen","prov":"Noord-Brabant","code":"GM0840","lat":51.5233,"lon":4.5583},{"name":"Schagen","prov":"Noord-Holland","code":"GM0441","lat":52.7845,"lon":4.7484},{"name":"Scherpenzeel","prov":"Gelderland","code":"GM0279","lat":52.0887,"lon":5.5019},{"name":"Schiedam","prov":"Zuid-Holland","code":"GM0606","lat":51.9279,"lon":4.3857},{"name":"Schiermonnikoog","prov":"Fryslân","code":"GM0088","lat":53.4918,"lon":6.2286},{"name":"Schouwen-Duiveland","prov":"Zeeland","code":"GM1676","lat":51.6861,"lon":3.9015},{"name":"Simpelveld","prov":"Limburg","code":"GM0965","lat":50.8292,"lon":5.9857},{"name":"Sint-Michielsgestel","prov":"Noord-Brabant","code":"GM0845","lat":51.6573,"lon":5.38},{"name":"Sittard-Geleen","prov":"Limburg","code":"GM1883","lat":51.0052,"lon":5.8277},{"name":"Sliedrecht","prov":"Zuid-Holland","code":"GM0610","lat":51.8309,"lon":4.7722},{"name":"Sluis","prov":"Zeeland","code":"GM1714","lat":51.329,"lon":3.5144},{"name":"Smallingerland","prov":"Fryslân","code":"GM0090","lat":53.1137,"lon":6.0407},{"name":"Soest","prov":"Utrecht","code":"GM0342","lat":52.1558,"lon":5.2958},{"name":"Someren","prov":"Noord-Brabant","code":"GM0847","lat":51.3791,"lon":5.6915},{"name":"Son en Breugel","prov":"Noord-Brabant","code":"GM0848","lat":51.5165,"lon":5.481},{"name":"Stadskanaal","prov":"Groningen","code":"GM0037","lat":53.0025,"lon":7.0094},{"name":"Staphorst","prov":"Overijssel","code":"GM0180","lat":52.6334,"lon":6.207},{"name":"Stede Broec","prov":"Noord-Holland","code":"GM0532","lat":52.7012,"lon":5.2278},{"name":"Steenbergen","prov":"Noord-Brabant","code":"GM0851","lat":51.5977,"lon":4.3251},{"name":"Steenwijkerland","prov":"Overijssel","code":"GM1708","lat":52.7553,"lon":6.0301},{"name":"Stein (L.)","prov":"Limburg","code":"GM0971","lat":50.9673,"lon":5.7643},{"name":"Stichtse Vecht","prov":"Utrecht","code":"GM1904","lat":52.1766,"lon":5.0131},{"name":"Súdwest-Fryslân","prov":"Fryslân","code":"GM1900","lat":53.0249,"lon":5.549},{"name":"Terneuzen","prov":"Zeeland","code":"GM0715","lat":51.2875,"lon":3.8468},{"name":"Terschelling","prov":"Fryslân","code":"GM0093","lat":53.3988,"lon":5.3281},{"name":"Texel","prov":"Noord-Holland","code":"GM0448","lat":53.0821,"lon":4.8097},{"name":"Teylingen","prov":"Zuid-Holland","code":"GM1525","lat":52.2145,"lon":4.5122},{"name":"Tholen","prov":"Zeeland","code":"GM0716","lat":51.5736,"lon":4.1347},{"name":"Tiel","prov":"Gelderland","code":"GM0281","lat":51.8851,"lon":5.408},{"name":"Tilburg","prov":"Noord-Brabant","code":"GM0855","lat":51.5829,"lon":5.077},{"name":"Tubbergen","prov":"Overijssel","code":"GM0183","lat":52.4108,"lon":6.7773},{"name":"Twenterand","prov":"Overijssel","code":"GM1700","lat":52.4471,"lon":6.5991},{"name":"Tynaarlo","prov":"Drenthe","code":"GM1730","lat":53.0966,"lon":6.6059},{"name":"Tytsjerksteradiel","prov":"Fryslân","code":"GM0737","lat":53.1992,"lon":5.9635},{"name":"Uitgeest","prov":"Noord-Holland","code":"GM0450","lat":52.5241,"lon":4.7283},{"name":"Uithoorn","prov":"Noord-Holland","code":"GM0451","lat":52.2364,"lon":4.7894},{"name":"Urk","prov":"Flevoland","code":"GM0184","lat":52.6656,"lon":5.6242},{"name":"Utrecht","prov":"Utrecht","code":"GM0344","lat":52.0911,"lon":5.0761},{"name":"Utrechtse Heuvelrug","prov":"Utrecht","code":"GM1581","lat":52.0346,"lon":5.3877},{"name":"Vaals","prov":"Limburg","code":"GM0981","lat":50.774,"lon":5.9778},{"name":"Valkenburg aan de Geul","prov":"Limburg","code":"GM0994","lat":50.8604,"lon":5.8236},{"name":"Valkenswaard","prov":"Noord-Brabant","code":"GM0858","lat":51.3236,"lon":5.4482},{"name":"Veendam","prov":"Groningen","code":"GM0047","lat":53.0891,"lon":6.8805},{"name":"Veenendaal","prov":"Utrecht","code":"GM0345","lat":52.0237,"lon":5.5543},{"name":"Veere","prov":"Zeeland","code":"GM0717","lat":51.5357,"lon":3.5518},{"name":"Veldhoven","prov":"Noord-Brabant","code":"GM0861","lat":51.4121,"lon":5.3834},{"name":"Velsen","prov":"Noord-Holland","code":"GM0453","lat":52.4494,"lon":4.6304},{"name":"Venlo","prov":"Limburg","code":"GM0983","lat":51.391,"lon":6.1577},{"name":"Venray","prov":"Limburg","code":"GM0984","lat":51.5154,"lon":5.9626},{"name":"Vijfheerenlanden","prov":"Utrecht","code":"GM1961","lat":51.9362,"lon":5.0574},{"name":"Vlaardingen","prov":"Zuid-Holland","code":"GM0622","lat":51.9172,"lon":4.3294},{"name":"Vlieland","prov":"Fryslân","code":"GM0096","lat":53.2537,"lon":4.9557},{"name":"Vlissingen","prov":"Zeeland","code":"GM0718","lat":51.461,"lon":3.6116},{"name":"Voerendaal","prov":"Limburg","code":"GM0986","lat":50.8692,"lon":5.9161},{"name":"Voorne aan Zee","prov":"Zuid-Holland","code":"GM1992","lat":51.8759,"lon":4.1322},{"name":"Voorschoten","prov":"Zuid-Holland","code":"GM0626","lat":52.1249,"lon":4.4406},{"name":"Voorst","prov":"Gelderland","code":"GM0285","lat":52.226,"lon":6.0987},{"name":"Vught","prov":"Noord-Brabant","code":"GM0865","lat":51.65,"lon":5.2431},{"name":"Waadhoeke","prov":"Fryslân","code":"GM1949","lat":53.2246,"lon":5.6123},{"name":"Waalre","prov":"Noord-Brabant","code":"GM0866","lat":51.3873,"lon":5.4647},{"name":"Waalwijk","prov":"Noord-Brabant","code":"GM0867","lat":51.6924,"lon":5.0104},{"name":"Waddinxveen","prov":"Zuid-Holland","code":"GM0627","lat":52.0432,"lon":4.6407},{"name":"Wageningen","prov":"Gelderland","code":"GM0289","lat":51.9733,"lon":5.664},{"name":"Wassenaar","prov":"Zuid-Holland","code":"GM0629","lat":52.1382,"lon":4.3738},{"name":"Waterland","prov":"Noord-Holland","code":"GM0852","lat":52.4528,"lon":5.0158},{"name":"Weert","prov":"Limburg","code":"GM0988","lat":51.2334,"lon":5.6909},{"name":"West Betuwe","prov":"Gelderland","code":"GM1960","lat":51.8616,"lon":5.2104},{"name":"West Maas en Waal","prov":"Gelderland","code":"GM0668","lat":51.8523,"lon":5.4982},{"name":"Westerkwartier","prov":"Groningen","code":"GM1969","lat":53.2186,"lon":6.3375},{"name":"Westerveld","prov":"Drenthe","code":"GM1701","lat":52.8381,"lon":6.2959},{"name":"Westervoort","prov":"Gelderland","code":"GM0293","lat":51.9565,"lon":5.9703},{"name":"Westerwolde","prov":"Groningen","code":"GM1950","lat":53.0137,"lon":7.12},{"name":"Westland","prov":"Zuid-Holland","code":"GM1783","lat":51.9976,"lon":4.2163},{"name":"Weststellingwerf","prov":"Fryslân","code":"GM0098","lat":52.8756,"lon":6.0176},{"name":"Wierden","prov":"Overijssel","code":"GM0189","lat":52.3447,"lon":6.56},{"name":"Wijchen","prov":"Gelderland","code":"GM0296","lat":51.8171,"lon":5.702},{"name":"Wijdemeren","prov":"Noord-Holland","code":"GM1696","lat":52.2257,"lon":5.0845},{"name":"Wijk bij Duurstede","prov":"Utrecht","code":"GM0352","lat":51.99,"lon":5.3232},{"name":"Winterswijk","prov":"Gelderland","code":"GM0294","lat":51.9701,"lon":6.726},{"name":"Woensdrecht","prov":"Noord-Brabant","code":"GM0873","lat":51.4075,"lon":4.3422},{"name":"Woerden","prov":"Utrecht","code":"GM0632","lat":52.1076,"lon":4.9001},{"name":"Wormerland","prov":"Noord-Holland","code":"GM0880","lat":52.5023,"lon":4.8556},{"name":"Woudenberg","prov":"Utrecht","code":"GM0351","lat":52.0809,"lon":5.4257},{"name":"Zaanstad","prov":"Noord-Holland","code":"GM0479","lat":52.4634,"lon":4.7743},{"name":"Zaltbommel","prov":"Gelderland","code":"GM0297","lat":51.7922,"lon":5.1594},{"name":"Zandvoort","prov":"Noord-Holland","code":"GM0473","lat":52.3582,"lon":4.5434},{"name":"Zeewolde","prov":"Flevoland","code":"GM0050","lat":52.3461,"lon":5.4511},{"name":"Zeist","prov":"Utrecht","code":"GM0355","lat":52.1025,"lon":5.2544},{"name":"Zevenaar","prov":"Gelderland","code":"GM0299","lat":51.9234,"lon":6.0855},{"name":"Zoetermeer","prov":"Zuid-Holland","code":"GM0637","lat":52.0611,"lon":4.4893},{"name":"Zoeterwoude","prov":"Zuid-Holland","code":"GM0638","lat":52.1156,"lon":4.513},{"name":"Zuidplas","prov":"Zuid-Holland","code":"GM1892","lat":51.9984,"lon":4.6065},{"name":"Zundert","prov":"Noord-Brabant","code":"GM0879","lat":51.4801,"lon":4.6427},{"name":"Zutphen","prov":"Gelderland","code":"GM0301","lat":52.1368,"lon":6.2338},{"name":"Zwartewaterland","prov":"Overijssel","code":"GM1896","lat":52.6022,"lon":6.064},{"name":"Zwijndrecht","prov":"Zuid-Holland","code":"GM0642","lat":51.8219,"lon":4.6071},{"name":"Zwolle","prov":"Overijssel","code":"GM0193","lat":52.5189,"lon":6.1193}]